{
    "jeudi": [
        {
            "name": "ARNAUD BERNARD \u2013 MARCH\u00c9 AUX LIVRES",
            "address": "Place Arnaud-Bernard",
            "hours": "07h00 \u2013 18h00"
        },
        {
            "name": "\u00c9TOILE DE BELFORT",
            "address": "Place de Belfort",
            "hours": "16h00 \u2013 21h00"
        },
        {
            "name": "JEANNE D'ARC",
            "address": "Place Jeanne d'Arc",
            "hours": "07h00 - 13h30"
        },
        {
            "name": "CAPITOLE",
            "address": "Place du Capitole",
            "hours": "07h00 - 13h30"
        },
        {
            "name": "SAINT MARTIN DU TOUCH",
            "address": "Place Grimaud",
            "hours": "16h30 - 20h00"
        },
        {
            "name": "DUPUY",
            "address": "Place Dupuy",
            "hours": "07h00 - 13h30"
        },
        {
            "name": "MINIMES",
            "address": "Place du March\u00e9 aux Cochons",
            "hours": "07h00 - 13h30"
        },
        {
            "name": "VICTOR HUGO",
            "address": "Place Victor Hugo",
            "hours": "07h00 - 13h30"
        },
        {
            "name": "CRISTAL",
            "address": "Boulevards de Strasbourg et d'Arcole",
            "hours": "07h00 - 13h30"
        },
        {
            "name": "SAINT GEORGES",
            "address": "Place Saint Georges",
            "hours": "15h00 - 20h00"
        },
        {
            "name": "REYNERIE",
            "address": "Place Abbal",
            "hours": "07h00 \u2013 14h00"
        },
        {
            "name": "SAINT CYPRIEN",
            "address": "Place Roguet",
            "hours": "07h00 - 13h30"
        },
        {
            "name": "CARMES",
            "address": "Place des Carmes",
            "hours": "07h00 - 13h30"
        }
    ],
    "mercredi": [
        {
            "name": "SAINT SIMON",
            "address": "Place de l'Eglise Saint-Simon",
            "hours": "07h00 - 13h30"
        },
        {
            "name": "JEANNE D'ARC",
            "address": "Place Jeanne d'Arc",
            "hours": "07h00 - 13h30"
        },
        {
            "name": "CROIX DAURADE",
            "address": "Route d'Albi",
            "hours": "7h00 \u00e0 14h00"
        },
        {
            "name": "TROIS COCUS",
            "address": "Place Micoulaud",
            "hours": "07h00 - 13h30"
        },
        {
            "name": "RANGUEIL",
            "address": "64-70 Avenue Albert-Bedouce",
            "hours": "07h00 - 13h30"
        },
        {
            "name": "CROIX DE PIERRE",
            "address": "Place de la Croix-de-Pierre",
            "hours": "07h00 - 13h30"
        },
        {
            "name": "EMPALOT",
            "address": "Place A. Viadieu",
            "hours": "07h00-13h30"
        },
        {
            "name": "CAPITOLE",
            "address": "Place du Capitole",
            "hours": "07h00 \u2013 19h00"
        },
        {
            "name": "VICTOR HUGO",
            "address": "Place Victor Hugo",
            "hours": "07h00 - 13h30"
        },
        {
            "name": "CRISTAL",
            "address": "Boulevards de Strasbourg et d'Arcole",
            "hours": "07h00 - 13h30"
        },
        {
            "name": "SAINT GEORGES",
            "address": "Place Saint Georges",
            "hours": "07h00 - 13h30"
        },
        {
            "name": "BELLEFONTAINE",
            "address": "Passage de J\u00e9rusalem",
            "hours": "07h00 - 13h30"
        },
        {
            "name": "SAINT CYPRIEN",
            "address": "Place Roguet",
            "hours": "07h00 - 13h30"
        },
        {
            "name": "CARMES",
            "address": "Place des Carmes",
            "hours": "07h00 - 13h30"
        },
        {
            "name": "REYNERIE - FRIPES",
            "address": "Rue de Kiev",
            "hours": "07h00 - 13h30"
        }
    ],
    "lundi": [
        {
            "name": "MARCH\u00c9 AUX LIVRES ST-CYPRIEN",
            "address": "Place Roguet",
            "hours": "08h00 \u2013 19h00"
        }
    ],
    "dimanche": [
        {
            "name": "HERBES AROMATIQUES DES BD",
            "address": "35-37 boulevard de Strasbourg",
            "hours": "06h30 \u2013 13h30"
        },
        {
            "name": "JEANNE D'ARC",
            "address": "Place Jeanne d'Arc",
            "hours": "07h00 \u2013 14h00"
        },
        {
            "name": "RANGUEIL",
            "address": "64-70 Avenue Albert-Bedouce",
            "hours": "07h00 - 13h30"
        },
        {
            "name": "SEPT DENIERS",
            "address": "105 Route de Blagnac",
            "hours": "07h00 - 13h30"
        },
        {
            "name": "VICTOR HUGO",
            "address": "Place Victor Hugo",
            "hours": "07h00 - 13h30"
        },
        {
            "name": "SAINT-AUBIN",
            "address": "Bvd Michelet",
            "hours": "07h00 - 13h30"
        },
        {
            "name": "CRISTAL",
            "address": "Boulevards de Strasbourg et d'Arcole",
            "hours": "07h00 \u2013 14h00"
        },
        {
            "name": "SAINT CYPRIEN",
            "address": "Place Roguet",
            "hours": "07h00 - 13h30"
        },
        {
            "name": "CARMES",
            "address": "Place des Carmes",
            "hours": "07h00 - 13h30"
        },
        {
            "name": "GRANDE BROCANTE - ALL\u00c9ES FRAN\u00c7OIS",
            "address": "All\u00e9es Fran\u00e7ois Verdier",
            "hours": "1er du mois"
        },
        {
            "name": "JULES GUESDE",
            "address": "All\u00e9es Jules Guesde",
            "hours": "07h00 \u2013 14h00"
        }
    ],
    "vendredi": [
        {
            "name": "PONTS JUMEAUX",
            "address": "Rue R.C. Brunschvicg",
            "hours": "16h - 20h"
        },
        {
            "name": "URSS",
            "address": "19-39 Avenue de l'URSS",
            "hours": "07h00 - 13h30"
        },
        {
            "name": "JEANNE D'ARC",
            "address": "Place Jeanne d'Arc",
            "hours": "07h00 - 13h30"
        },
        {
            "name": "FAOURETTE",
            "address": "Place Paul-Lambert",
            "hours": "07h00 \u2013 14h00"
        },
        {
            "name": "ANCELY",
            "address": "264 avenue de Casselardit",
            "hours": "12h00 \u2013 19h00"
        },
        {
            "name": "CROIX DE PIERRE",
            "address": "Place de la Croix-de-Pierre",
            "hours": "07h00 - 13h30"
        },
        {
            "name": "RAVELIN",
            "address": "Place du Ravelin",
            "hours": "07h00 - 13h30"
        },
        {
            "name": "CAPITOLE",
            "address": "Place du Capitole",
            "hours": "07h00 - 13h30"
        },
        {
            "name": "SALIN - MARCH\u00c9 AUX LIVRES",
            "address": "Place du Salin",
            "hours": "07h00 - 18h00"
        },
        {
            "name": "VICTOR HUGO",
            "address": "Place Victor Hugo",
            "hours": "07h00 - 13h30"
        },
        {
            "name": "CRISTAL",
            "address": "Boulevards de Strasbourg et d'Arcole",
            "hours": "07h00 - 13h30"
        },
        {
            "name": "SAINT GEORGES",
            "address": "Place Saint Georges",
            "hours": "07h00 - 13h30"
        },
        {
            "name": "SAINT CYPRIEN",
            "address": "Place Roguet",
            "hours": "07h00 - 13h30"
        },
        {
            "name": "CARMES",
            "address": "Place des Carmes",
            "hours": "07h00 - 13h30"
        },
        {
            "name": "GRANDE BROCANTE - ALL\u00c9ES FRAN\u00c7OIS",
            "address": "All\u00e9es Fran\u00e7ois Verdier",
            "hours": "1er du mois"
        },
        {
            "name": "SALIN",
            "address": "Place du Salin",
            "hours": "07h00 - 13h30"
        }
    ],
    "mardi": [
        {
            "name": "JEANNE D'ARC",
            "address": "Place Jeanne d'Arc",
            "hours": "07h00 - 13h30"
        },
        {
            "name": "FAOURETTE",
            "address": "Place Paul-Lambert",
            "hours": "07h00 \u2013 14h00"
        },
        {
            "name": "CAPITOLE",
            "address": "Place du Capitole",
            "hours": "07h00 - 13h30"
        },
        {
            "name": "BETEILLE",
            "address": "Place Jean-Bories",
            "hours": "07h00 - 13h30"
        },
        {
            "name": "ORMEAU",
            "address": "Place de l'Ormeau",
            "hours": "07h00 - 13h30"
        },
        {
            "name": "SALIN - MARCH\u00c9 AUX LIVRES",
            "address": "Place du Salin",
            "hours": "07h00 - 18h00"
        },
        {
            "name": "VICTOR HUGO",
            "address": "Place Victor Hugo",
            "hours": "07h00 - 13h30"
        },
        {
            "name": "ESPARCETTE BIO",
            "address": "Square Charles de Gaulle",
            "hours": "08h00 - 14h00"
        },
        {
            "name": "CRISTAL",
            "address": "Boulevards de Strasbourg et d'Arcole",
            "hours": "07h00 - 13h30"
        },
        {
            "name": "SAINT GEORGES",
            "address": "Place Saint Georges",
            "hours": "07h00 - 13h30"
        },
        {
            "name": "SAINT CYPRIEN",
            "address": "Place Roguet",
            "hours": "07h00 - 13h30"
        },
        {
            "name": "CARMES",
            "address": "Place des Carmes",
            "hours": "07h00 - 13h30"
        },
        {
            "name": "SALIN",
            "address": "Place du Salin",
            "hours": "07h00 - 13h30"
        }
    ],
    "samedi": [
        {
            "name": "JEANNE D'ARC",
            "address": "Place Jeanne d'Arc",
            "hours": "07h00 - 13h30"
        },
        {
            "name": "OUSTALOUS",
            "address": "51-53 Route d'Espagne",
            "hours": "07h00 \u2013 14h00"
        },
        {
            "name": "BORDEROUGE",
            "address": "Place du Carr\u00e9-de-la-Maourine",
            "hours": "07h00 - 13h30"
        },
        {
            "name": "SOUPETARD",
            "address": "58-66 Rue Louis-Plana",
            "hours": "07h00 - 13h30"
        },
        {
            "name": "LAFOURGUETTE",
            "address": "Place des Gli\u00e8res",
            "hours": "07h00 - 13h30"
        },
        {
            "name": "BROCANTE SAINT AUBIN",
            "address": "Bvd Michelet",
            "hours": "07h00 - 13h30"
        },
        {
            "name": "CAPITOLE",
            "address": "Place du Capitole",
            "hours": "07h00 - 13h30"
        },
        {
            "name": "ORMEAU",
            "address": "Place de l'Ormeau",
            "hours": "07h00 - 13h30"
        },
        {
            "name": "SAINT \u00c9TIENNE",
            "address": "Place Saint-Etienne",
            "hours": "09h30 \u2013 18h00"
        },
        {
            "name": "ARNAUD BERNARD",
            "address": "Place Arnaud-Bernard",
            "hours": "07h00 - 13h30"
        },
        {
            "name": "VICTOR HUGO",
            "address": "Place Victor Hugo",
            "hours": "07h00 - 13h30"
        },
        {
            "name": "ESPARCETTE BIO",
            "address": "Square Charles de Gaulle",
            "hours": "08h00 - 14h00"
        },
        {
            "name": "CRISTAL",
            "address": "Boulevards de Strasbourg et d'Arcole",
            "hours": "07h00 - 13h30"
        },
        {
            "name": "SAINT GEORGES",
            "address": "Place Saint Georges",
            "hours": "07h00 - 13h30"
        },
        {
            "name": "SAINT CYPRIEN",
            "address": "Place Roguet",
            "hours": "07h00 - 13h30"
        },
        {
            "name": "CARMES",
            "address": "Place des Carmes",
            "hours": "07h00 - 13h30"
        },
        {
            "name": "GRANDE BROCANTE - ALL\u00c9ES FRAN\u00c7OIS",
            "address": "All\u00e9es Fran\u00e7ois Verdier",
            "hours": "1er du mois"
        },
        {
            "name": "ESPACE DES CHINEURS",
            "address": "Bvd Michelet, \u00e9glise Saint Aubin",
            "hours": "08h30 - 13h00"
        },
        {
            "name": "SALIN",
            "address": "Place du Salin",
            "hours": "07h00 - 13h30"
        },
        {
            "name": "SAINT MICHEL",
            "address": "18 bis Grande-Rue Saint Michel",
            "hours": "07h00 - 13H30"
        },
        {
            "name": "PRADETTES",
            "address": "Place des Pradettes",
            "hours": "07h00 - 13h30"
        }
    ]
}